{
  "markers_add": [
    {
      "title": "B'smart - Bùi Đình Túy",
      "address": "31 Bùi Đình Túy, P. 26, Quận Bình Thạnh, TP. HCM",
      "tel": "38 353 193",
      "lat": "10.8080872401450",
      "lng": "106.7084456812897"
    },
    {
      "title": "B's Mart - Tôn Thất Hiệp",
      "address": "223 Tôn Thất Hiệp, Quận 11, TP. HCM",
      "tel": "39 625 801",
      "lat": "10.7608220000000",
      "lng": "106.6527639999999"
    },
    {
      "title": "B's Mart - 104A Độc Lập",
      "address": "104A Độc Lập, P. Tân Thành, Quận Tân Phú, TP. HCM",
      "tel": "38 494 542",
      "lat": "10.7922560000000",
      "lng": "106.6339229999999"
    },
    {
      "title": "B's Mart - Phạm Văn Hai",
      "address": "109F Phạm Văn Hai, Quận Tân Bình, TP. HCM",
      "tel": "39 916 218",
      "lat": "10.7925849999999",
      "lng": "106.6624260000000"
    },
    {
      "title": "B's Mart - Hoàng Văn Thái",
      "address": "73 Hoàng Văn Thái, Quận 7, TP. HCM",
      "tel": "54 138 219",
      "lat": "10.7308523000000",
      "lng": "106.7231815999999"
    },
    {
      "title": "B's Mart - Cao Ốc Phú Thọ",
      "address": "013 - 014 Cao Ốc Phú Thọ, Thiên Phước, Quận 11, TP. HCM",
      "tel": "38 353 193",
      "lat": "10.7771060000000",
      "lng": "106.6543870000000"
    },
    {
      "title": "B's Mart - Thăng Long",
      "address": "57 Thăng Long, Quận Tân Bình, TP. HCM",
      "tel": "39 483 930",
      "lat": "10.8030400000000",
      "lng": "106.6607290000000"
    },
    {
      "title": "B's Mart - Sư Vạn Hạnh",
      "address": "25C Sư Vạn Hạnh, P. 9, Quận 5, TP. HCM",
      "tel": "38 305 197",
      "lat": "10.7602738000000",
      "lng": "106.6730795999999"
    },
    {
      "title": "B's Mart - Thích Quảng Đức",
      "address": "93 Thích Quảng Đức, Quận Phú Nhuận, TP. HCM",
      "tel": "39 953 650",
      "lat": "10.8050000000000",
      "lng": "106.6826860000000"
    },
    {
      "title": "B's mart - Phạm Ngũ Lão",
      "address": "321 Phạm Ngũ Lão, P. Phạm Ngũ Lão, Quận 1, TP. HCM",
      "tel": "38 353 193",
      "lat": "10.7675502000000",
      "lng": "106.6905865999999"
    },
    {
      "title": "B's Mart - Minh Phụng",
      "address": "201 Minh Phụng, P. 9, Quận 6, TP. HCM",
      "tel": "38 949 348",
      "lat": "10.7527829999999",
      "lng": "106.6428579999999"
    },
    {
      "title": "B's Mart - Lữ Gia ",
      "address": "54 Lữ Gia, P. 15, Quận 11, TP. HCM",
      "tel": "38 687 926",
      "lat": "10.7708800000000",
      "lng": "106.6542060000000"
    },
    {
      "title": "B's Mart - Đỗ Xuân Hợp",
      "address": "338 Đỗ Xuân Hợp, Phước Long A, Quận 9, TP. HCM",
      "tel": "37 313 589",
      "lat": "10.8221818000000",
      "lng": "106.7714356000000"
    },
    {
      "title": "B's Mart - Trần Quang Diệu",
      "address": "63 Trần Quang Diệu, P.13, Quận 3, TP. HCM",
      "tel": "39 311 631",
      "lat": "10.7897508000000",
      "lng": "106.6779541999999"
    },
    {
      "title": "B's Mart - Trương Vĩnh Ký ",
      "address": "319 Trương Vĩnh Ký, P. Tân Thành, Quận Tân Phú, TP. HCM",
      "tel": "38 125 622",
      "lat": "10.7932183000000",
      "lng": "106.6372523999999"
    },
    {
      "title": "B's Mart - Lạc Long Quân",
      "address": "343E Lạc Long Quân, P. 5, Quận 11, TP. HCM",
      "tel": "38 353 193",
      "lat": "10.7685830000000",
      "lng": "106.6433660000000"
    },
    {
      "title": "B's Mart - Nguyễn Trọng Tuyển",
      "address": "57 - 59 Nguyễn Trọng Tuyển, P. 15, Quận Phú Nhuận, TP. HCM",
      "tel": "39 950 466",
      "lat": "10.7971760000000",
      "lng": "106.6794919999999"
    },
    {
      "title": "B's Mart - Tạ Quang Bửu",
      "address": "44 Đường 643 Tạ Quang Bửu, P. 4, Quận 8, TP. HCM",
      "tel": "38 353 193",
      "lat": "10.7387539000000",
      "lng": "106.6740371999999"
    },
    {
      "title": "B's Mart - Phan Xích Long",
      "address": "22 Phan Xích Long, P. 3, Quận Phú Nhuận, TP. HCM",
      "tel": "39 900 276",
      "lat": "10.8029240000000",
      "lng": "106.6820740000000"
    },
    {
      "title": "B's Mart - Cách Mạng Tháng 8",
      "address": "949 Cách Mạng Tháng 8, P. 7, Quận Tân Bình, TP. HCM",
      "tel": "39 771 326",
      "lat": "10.7901930000000",
      "lng": "106.6583420000000"
    },
    {
      "title": "B's Mart - Lê Đức Thọ",
      "address": "615 Lê Đức Thọ, Quận Gò Vấp, TP. HCM",
      "tel": "38 949 348",
      "lat": "10.8404140000000",
      "lng": "106.6787440000000"
    },
    {
      "title": "B's Mart - Bùi Thị Xuân",
      "address": "122D Bùi Thị Xuân, P. Phạm Ngũ Lão, Quận 1, TP. HCM",
      "tel": "39 253 630",
      "lat": "10.7698995000000",
      "lng": "106.6883630000000"
    },
    {
      "title": "B's Mart - Bùi Viện",
      "address": "76 - 78 Bùi Viện, P. Phạm Ngũ Lão, Quận 1, TP. HCM",
      "tel": "38 361 452",
      "lat": "10.7671280000000",
      "lng": "106.6934200000000"
    },
    {
      "title": "B's Mart - Lê Quang Định",
      "address": "484 Lê Quang Định, P. 11, Quận Bình Thạnh, TP. HCM",
      "tel": "35 501 406",
      "lat": "10.8155996000000",
      "lng": "106.6887484999999"
    },
    {
      "title": "B's Mart - Nguyễn Tất Thành",
      "address": "404 Nguyễn Tất Thành, P. 18, Quận 4, TP. HCM",
      "tel": "39 415 846",
      "lat": "10.7598157000000",
      "lng": "106.7127850000000"
    },
    {
      "title": "B's mart - Nguyễn Thái Bình",
      "address": "88 Nguyễn Thái Bình, Quận 1, TP. HCM",
      "tel": "38 353 193",
      "lat": "10.7698387000000",
      "lng": "106.7000091000000"
    },
    {
      "title": "B's Mart - Đường D5",
      "address": "30 Đường D5, P. 25, Quận Bình Thạnh, TP. HCM",
      "tel": "35 126 527",
      "lat": "10.8065200000000",
      "lng": "106.7135540000000"
    },
    {
      "title": "B's Mart - Hoàng Hoa Thám ",
      "address": "63 Hoàng Hoa Thám, P. 13, Quận Tân Bình, TP. HCM",
      "tel": "38 100 588",
      "lat": "10.8006430000000",
      "lng": "106.6472640000000"
    },
    {
      "title": "B's Mart - Nguyễn Văn Đậu",
      "address": "183E Nguyễn Văn Đậu , Quận Bình Thạnh, TP. HCM",
      "tel": "35 153 619",
      "lat": "10.8115560000000",
      "lng": "106.6917300000000"
    },
    {
      "title": "B's Mart - Vĩnh Hội",
      "address": "2C Vĩnh Hội, P. 3, Quận 4, TP. HCM",
      "tel": "39 409 866",
      "lat": "10.7561068000000",
      "lng": "106.7025608999999"
    },
    {
      "title": "B's Mart - 292 Nguyễn Tất Thành",
      "address": "292 Nguyễn Tất Thành, P. 13, Quận 4, TP. HCM",
      "tel": "38 266 596",
      "lat": "10.7616380000000",
      "lng": "106.7095438999999"
    },
    {
      "title": "B's Mart - Dương Bá Trạc",
      "address": "126 Dương Bá Trạc, P. 2, Quận 8, TP. HCM",
      "tel": "38 523 651",
      "lat": "10.7480510000000",
      "lng": "106.6884290000000"
    },
    {
      "title": "B's Mart - Cư Xá Bình Thới",
      "address": "9 Đường Số 2, Cư Xá Bình Thới, P. 8, Quận 11, TP. HCM",
      "tel": "38 353 193",
      "lat": "10.7644740000000",
      "lng": "106.6474860000000"
    },
    {
      "title": "B's Mart - Cộng Hòa",
      "address": "334 Cộng Hòa, P. 13, Quận Tân Bình, TP. HCM",
      "tel": "38 134 599",
      "lat": "10.8018780000000",
      "lng": "106.6459300000000"
    },
    {
      "title": "B's Mart - Ấp Bắc",
      "address": "16 Ấp Bắc, Quận Tân Bình, TP. HCM",
      "tel": "38 134 885",
      "lat": "10.8008694000000",
      "lng": "106.6414600000000"
    },
    {
      "title": "B's Mart - Thoại Ngọc Hầu",
      "address": "9A Thoại Ngọc Hầu, Quận Tân Phú, TP. HCM",
      "tel": "38 353 193",
      "lat": "10.7841040000000",
      "lng": "106.6394580000000"
    },
    {
      "title": "B's Mart - Hoàng Diệu",
      "address": "192A Hoàng Diệu, P. 9, Quận 4, TP. HCM",
      "tel": "39 407 642",
      "lat": "10.7634017000000",
      "lng": "106.7027210000000"
    },
    {
      "title": "B's Mart - Trần Quốc Toản",
      "address": "29 Trần Quốc Toản, Quận 3, TP. HCM",
      "tel": "35 260 003",
      "lat": "10.7889920000000",
      "lng": "106.6891180000000"
    },
    {
      "title": "B's Mart - 36 Nguyễn Văn Đậu",
      "address": "36 Nguyễn Văn Đậu, P. 5, Quận Phú Nhuận, TP. HCM",
      "tel": "35 150 885",
      "lat": "10.8052690000000",
      "lng": "106.6870840000000"
    },
    {
      "title": "B's mart - Nguyễn Thái Học ",
      "address": "84 Nguyễn Thái Học, Quận 1, TP. HCM",
      "tel": "38 353 193",
      "lat": "10.7665670000000",
      "lng": "106.6963459999999"
    },
    {
      "title": "B's Mart - Lê Văn Việt",
      "address": "A2/2a Lê Văn Việt, Quận 9, TP. HCM",
      "tel": "37 361 319",
      "lat": "10.8449200000000",
      "lng": "106.7919000000000"
    },
    {
      "title": "B's Mart - 739 Cách Mạng Tháng 8",
      "address": "739 Cách Mạng Tháng 8, P. 6, Quận Tân Bình, TP. HCM",
      "tel": "39 778 851",
      "lat": "10.7877642000000",
      "lng": "106.6629714000000"
    },
    {
      "title": "B's Mart - Trần Khắc Chân",
      "address": "38/1Bis Trần Khắc Chân, P.Tân Định, Quận 1, TP. HCM",
      "tel": "38 483 880",
      "lat": "10.7937665000000",
      "lng": "106.6913040000000"
    },
    {
      "title": "B's Mart - Đặng Văn Ngữ",
      "address": "141A Đặng Văn Ngữ, P. 14, Quận Phú Nhuận, TP. HCM",
      "tel": "39 917 320",
      "lat": "10.7916610000000",
      "lng": "106.6675250000000"
    },
    {
      "title": "B's Mart - Tô Hiến Thành",
      "address": "131 Tô Hiến Thành, P. 13, Quận 10, TP. HCM",
      "tel": "38 680 196",
      "lat": "10.7810350000000",
      "lng": "106.6696939999999"
    },
    {
      "title": "B's Mart - Đồng Đen",
      "address": "103 Đồng Đen, Quận Tân Bình, TP. HCM",
      "tel": "39 492 718",
      "lat": "10.7927690000000",
      "lng": "106.6444360000000"
    },
    {
      "title": "B's Mart - Trịnh Đình Trọng",
      "address": "104 Trịnh Đình Trọng, P. Phú Trung, Quận Tân Phú, TP. HCM",
      "tel": "39 744 377",
      "lat": "10.7751390000000",
      "lng": "106.6445670000000"
    },
    {
      "title": "B's Mart - Nguyễn Chí Thanh",
      "address": "440 Nguyễn Chí Thanh, P. 6, Quận 10, TP. HCM",
      "tel": "39 575 573",
      "lat": "10.7590120000000",
      "lng": "106.6648540000000"
    },
    {
      "title": "B's Mart - Quốc Lộ 13",
      "address": "156 Quốc Lộ 13, P. 26, Quận Bình Thạnh, TP. HCM",
      "tel": "35 119 959",
      "lat": "10.8140297000000",
      "lng": "106.7129290000000"
    },
    {
      "title": "B's Mart - Gia Phú",
      "address": "171 Gia Phú, P. 1, Quận 6, TP. HCM",
      "tel": "0982 279 038",
      "lat": "10.7465658087375",
      "lng": "106.6522582992911"
    },
    {
      "title": "B's Mart - Tân Hoà Đông",
      "address": "163A Tân Hoà Đông, P. 14, Quận 6, TP. HCM",
      "tel": "38 353 193",
      "lat": "10.7595210000000",
      "lng": "106.6289530000000"
    },
    {
      "title": "B's mart - 226D Lê Văn Sỹ",
      "address": "226D Lê văn Sỹ, Quận Tân Bình, TP. HCM",
      "tel": "39 970 188",
      "lat": "10.7955473000000",
      "lng": "106.6681802000000"
    },
    {
      "title": "B's Mart - Nguyễn Cư Trinh",
      "address": "39 Nguyễn Cư Trinh, P. Nguyễn Cư Trinh, Quận 1, TP. HCM",
      "tel": "38 385 712",
      "lat": "10.7642340000000",
      "lng": "106.6914040000000"
    },
    {
      "title": "B's Mart - Lý Chính Thắng",
      "address": "250A Lý Chính Thắng, Quận 3, TP. HCM",
      "tel": "35 260 669",
      "lat": "10.7798170000000",
      "lng": "106.6822960000000"
    },
    {
      "title": "B's mart - Nguyễn Hữu Cầu",
      "address": "32 Nguyễn Hữu Cầu, Quận 1, TP. HCM",
      "tel": "38 353 193",
      "lat": "10.7911229999999",
      "lng": "106.6910590000000"
    },
    {
      "title": "B's Mart - Khánh Hội",
      "address": "283 Khánh hội, Quận 4, TP. HCM",
      "tel": "39 410 166",
      "lat": "10.7600819999999",
      "lng": "106.6982620000000"
    },
    {
      "title": "B's Mart - Ung Văn Khiêm",
      "address": "31/40 Ung Văn Khiêm, Quận Bình Thạnh, TP. HCM",
      "tel": "35 110 490",
      "lat": "10.8099015000000",
      "lng": "106.7150745000000"
    },
    {
      "title": "B's Mart - Bành Văn Trân",
      "address": "92 Bành Văn Trân, P. 7, Quận Tân Bình, TP. HCM",
      "tel": "39 778 993",
      "lat": "10.7883175000000",
      "lng": "106.6578429999999"
    },
    {
      "title": "B's Mart - Quốc Hương",
      "address": "49J Quốc Hương, Quận 2, TP. HCM",
      "tel": "35 191 617",
      "lat": "10.8052011399772",
      "lng": "106.7313395440578"
    },
    {
      "title": "B'smart - Dương Bá Trạc",
      "address": "132 Dương Bá Trạc, P. 2, Quận 8, TP. HCM",
      "tel": "38 523 651",
      "lat": "10.7426168000000",
      "lng": "106.6883795000000"
    },
    {
      "title": "B's Mart - 230A Độc Lập",
      "address": "230A Độc Lập, P. Tân Thành, Quận Tân Phú, TP. HCM",
      "tel": "38 353 193",
      "lat": "10.7916210000000",
      "lng": "106.6370270000000"
    },
    {
      "title": "B's Mart - Lê Bình ",
      "address": "9 Lê Bình, P. 4, Quận Tân Bình, TP. HCM",
      "tel": "39 481 079",
      "lat": "10.7932308000000",
      "lng": "106.6588819999999"
    },
    {
      "title": "B's Mart - Nguyễn Thái Bình",
      "address": "210 Nguyễn Thái Bình, P. 13, Quận Tân Bình, TP. HCM",
      "tel": "39 483 284",
      "lat": "10.7968040000000",
      "lng": "106.6529960000000"
    },
    {
      "title": "B's Mart - Đất Thánh",
      "address": "12 - 12A Đất Thánh, P. 6, Quận Tân Bình, TP. HCM",
      "tel": "38 685 067",
      "lat": "10.7829212000000",
      "lng": "106.6585172999999"
    },
    {
      "title": "B's Mart - 406C Cách Mạng Tháng 8",
      "address": "406C Cách Mạng Tháng 8, P. 7, Quận 3, TP. HCM",
      "tel": "39 310 510",
      "lat": "10.7847820000000",
      "lng": "106.6690550000000"
    },
    {
      "title": "B's Mart - Nguyễn Phúc Nguyên",
      "address": "112 Nguyễn Phúc Nguyên, P. 9, Quận 3, TP. HCM",
      "tel": "39 311 257",
      "lat": "10.7800546197467",
      "lng": "106.6798666119575"
    },
    {
      "title": "B's Mart - Tân Kỳ Tân Quý",
      "address": "164A Tân Kỳ Tân Quý, P. Sơn Kỳ, Quận Tân Phú, TP. HCM",
      "tel": "38 125 620",
      "lat": "10.8025666000000",
      "lng": "106.6274339000000"
    },
    {
      "title": "B's Mart - Đường S11",
      "address": "47 Đường S11, P. Tây Thạnh, Quận Tân Phú, TP. HCM",
      "tel": "38 164 067",
      "lat": "10.8131279000000",
      "lng": "106.6218218999999"
    },
    {
      "title": "B's Mart - Hoàng Diệu 2",
      "address": "63 Hoàng Diệu 2, P. Linh Trung, Quận Thủ Đức, TP. HCM",
      "tel": "37 224 451",
      "lat": "10.8580034000000",
      "lng": "106.7633547000000"
    },
    {
      "title": "B's Mart - Trương Định",
      "address": "43 Trương Định, P. Bến Thành, Quận 1, TP. HCM",
      "tel": "38 239 866",
      "lat": "10.7722211000000",
      "lng": "106.6956757000000"
    },
    {
      "title": "B's Mart - Cao Bá Nhạ",
      "address": "22 Cao Bá Nhạ, P. Nguyễn Cư Trinh, Quận 1, TP. HCM",
      "tel": "38 364 920",
      "lat": "10.7631080000000",
      "lng": "106.6900749000000"
    },
    {
      "title": "B's Mart - Lê Thánh Tôn",
      "address": "165 - 167 Lê Thánh Tôn, P. Bến Thành, Quận 1, TP. HCM",
      "tel": "38 229 453",
      "lat": "10.7738941000000",
      "lng": "106.6988395999999"
    },
    {
      "title": "B's Mart - Lê Văn Sỹ ",
      "address": "268 Lê Văn Sỹ, Quận 3, TP. HCM",
      "tel": "38 949 348",
      "lat": "10.7865890000000",
      "lng": "106.6802060000000"
    },
    {
      "title": "B's Mart - Đồng Nai",
      "address": "82 Đồng Nai, P. 15, Quận 10, TP. HCM",
      "tel": "39 778 658",
      "lat": "10.7797860000000",
      "lng": "106.6621859999999"
    },
    {
      "title": "B's Mart - 347 Nguyễn Trọng Tuyển",
      "address": "347 Nguyễn Trọng Tuyển, Quận Tân Bình, TP. HCM",
      "tel": "38 423 010",
      "lat": "10.7981939999999",
      "lng": "106.6678570000000"
    },
    {
      "title": " B's Mart - Nguyễn Thiện Thuật",
      "address": "105Bis Nguyễn Thiện Thuật, P. 2, Quận 3, TP. HCM",
      "tel": "38 333 008",
      "lat": "10.7665224000000",
      "lng": "106.6817570000000"
    },
    {
      "title": "B's Mart - 74 Trần Bình Trọng",
      "address": "74 Trần Bình Trọng, P. 1, Quận 5, TP. HCM",
      "tel": "35 366 174",
      "lat": "10.7543600000000",
      "lng": "106.6819320000000"
    },
    {
      "title": "B's Mart - Trần Bình Trọng",
      "address": "125 Trần Bình Trọng, P. 2, Quận 5, TP. HCM",
      "tel": "39 240 399",
      "lat": "10.7570582000000",
      "lng": "106.6809225000000"
    },
    {
      "title": "B's Mart - Đường D1",
      "address": "169 Đường D1, Quận Bình Thạnh, TP. HCM",
      "tel": "35 127 252",
      "lat": "10.8033080000000",
      "lng": "106.7203710000000"
    },
    {
      "title": "B's Mart - 153 Hoàng Hoa Thám",
      "address": "153 Hoàng Hoa Thám, Quận Tân Bình, TP. HCM",
      "tel": "38 353 193",
      "lat": "10.8046700000000",
      "lng": "106.6476989999999"
    },
    {
      "title": "B's Mart - Đặng Thái Thân",
      "address": "16 Đặng Thái Thân, P. 11, Quận 5, TP. HCM",
      "tel": "38 536 802",
      "lat": "10.7547369999999",
      "lng": "106.6654530000000"
    },
    {
      "title": "B's Mart - Tân Mỹ",
      "address": "35 Tân Mỹ, Quận 7, TP. HCM",
      "tel": "37 711 712",
      "lat": "10.7364060000000",
      "lng": "106.7183930000000"
    },
    {
      "title": "B's mart - Nguyễn Khắc Nhu",
      "address": "69 Nguyễn Khắc Nhu, Quận 1, TP. HCM",
      "tel": "38 353 193",
      "lat": "10.7635460000000",
      "lng": "106.6929730000000"
    },
    {
      "title": "B's mart - Phó Đức Chính",
      "address": "56 Phó Đức Chính, P. Nguyễn Thái Bình, Quận 1, TP. HCM",
      "tel": "38 353 193",
      "lat": "10.7691882000000",
      "lng": "106.7001735999999"
    },
    {
      "title": "B's Mart - Nguyễn Thị Định",
      "address": "535 Nguyễn Thị Định, P. Cát Lái, Quận 2, TP. HCM",
      "tel": "38 353 193",
      "lat": "10.7768610000000",
      "lng": "106.7654960000000"
    },
    {
      "title": "B's Mart - Nguyễn Duy Dương",
      "address": "140 Nguyễn Duy Dương, P. 3, Quận 10, TP. HCM",
      "tel": "38 308 844",
      "lat": "10.7606310000000",
      "lng": "106.6710838999999"
    },
    {
      "title": "B's Mart - Đường Số 10",
      "address": "48 Đường Số 10 Bình Hưng, Bình Chánh, TP. HCM",
      "tel": "37 889 175",
      "lat": "10.7340520000000",
      "lng": "106.6898460000000"
    },
    {
      "title": "B's Mart - Phạm Thế Hiển",
      "address": "1094 Phạm Thế Hiển, P. 5, Quận 8, TP. HCM",
      "tel": "38 505 531",
      "lat": "10.7430170000000",
      "lng": "106.6668560000000"
    },
    {
      "title": "B's Mart - 769D Phạm Thế Hiển",
      "address": "769D Phạm Thế Hiển, P. 4, Quận 8, TP. HCM",
      "tel": "38 520 577",
      "lat": "10.7444842000000",
      "lng": "106.6742070000000"
    },
    {
      "title": "B's Mart - Vạn Kiếp",
      "address": "45 - 47 Vạn Kiếp, P. 3, Quận Bình Thạnh, TP. HCM",
      "tel": "35 104 313",
      "lat": "10.8007860000000",
      "lng": "106.6935479999999"
    },
    {
      "title": "B's Mart - 376 Lê Đức Thọ",
      "address": "376 Lê Đức Thọ, P. 6, Quận Gò Vấp, TP. HCM",
      "tel": "38 949 348",
      "lat": "10.8417150000000",
      "lng": "106.6773339999999"
    },
    {
      "title": "B's Mart - Hồ Văn Huê",
      "address": "43EF Hồ Văn Huê, P. 9, Quận Phú Nhuận, TP. HCM",
      "tel": "38 479 349",
      "lat": "10.8025470000000",
      "lng": "106.6763809999999"
    },
    {
      "title": "B's Mart - Đào Duy Anh",
      "address": "422 Đào Duy Anh, P. 9, Quận Phú Nhuận, TP. HCM",
      "tel": "38 440 725",
      "lat": "10.8082641000000",
      "lng": "106.6737693999999"
    },
    {
      "title": "B's Mart - 29 Đặng Văn Ngữ",
      "address": "29 Đặng Văn Ngữ, P. 10, Quận Phú Nhuận, TP. HCM",
      "tel": "39 915 103",
      "lat": "10.7954932000000",
      "lng": "106.6697575000000"
    },
    {
      "title": "B's Mart -  Lê Văn Lương",
      "address": "352 Lê Văn Lương, P. Tân Hưng, Quận 7, TP. HCM",
      "tel": "37 711 988",
      "lat": "10.7473972000000",
      "lng": "106.7046502000000"
    },
    {
      "title": "B's Mart - Lâm Văn Bền",
      "address": "45 Lâm Văn Bền, P. Tân Thuận Tây, Quận 7, TP. HCM",
      "tel": "38 729 916",
      "lat": "10.7498947000000",
      "lng": "106.7158217999999"
    },
    {
      "title": "B's Mart - Đường Số 15 ",
      "address": "108 Đường Số 15, P. Tân Kiểng, Quận 7, TP. HCM",
      "tel": "37 750 676",
      "lat": "10.7455310000000",
      "lng": "106.7061520000000"
    },
    {
      "title": "B's Mart - Phạm Văn Chí",
      "address": "210A Phạm Văn Chí, P. 4, Quận 6, TP. HCM",
      "tel": "38 353 193",
      "lat": "10.7449109191403",
      "lng": "106.6469002515077"
    },
    {
      "title": "B's Mart - Nguyễn Thị Tần",
      "address": "11N Nguyễn Thị Tần, P. 2, Quận 8, TP. HCM",
      "tel": "38 511 104",
      "lat": "10.7457790000000",
      "lng": "106.6865569000000"
    },
    {
      "title": "B's Mart - Bùi Minh Trực",
      "address": "8A Bùi Minh Trực, P. 5, Quận 8, TP. HCM",
      "tel": "39 813 650",
      "lat": "10.7380320000000",
      "lng": "106.6580010000000"
    },
    {
      "title": "B's Mart - Hoa Bằng",
      "address": "24 Hoa Bằng, Quận Tân Phú, TP. HCM",
      "tel": "38 106 007",
      "lat": "10.7989302684441",
      "lng": "106.6276869177818"
    },
    {
      "title": "B's Mart - Nguyễn Văn Phú",
      "address": "19 Nguyễn Văn Phú, P. 5, Quận 11, TP. HCM",
      "tel": "3 526 0003",
      "lat": "10.7702105675812",
      "lng": "106.6430640220642"
    },
    {
      "title": "B's Mart - Nguyễn Duy Trinh",
      "address": "522 Nguyễn Duy Trinh, P. Bình Trưng Đông, Quận 2, TP. HCM",
      "tel": "37 437 002",
      "lat": "10.7881162396860",
      "lng": "106.7743524536490"
    }
  ]
}
