{
	"markers_add": [
		{
			"title": "B’s mart cửa hàng 1",
			"address": "69 Nguyễn Khắc Nhu, Phường Cô Giang, Quận 1",
			"lat": "10.76356",
			"lng": "106.692892"
		},
		{
			"title": "B’s mart cửa hàng 2",
			"address": "38/1 bis Trần Khắc Chân, Phường Tân Định, Quận 1",
			"lat": "10.793511",
			"lng": "106.691497"
		},
		{
			"title": "B’s mart cửa hàng 3",
			"address": "56 Phó Đức Chính, Phường Nguyễn Thái Bình, Quận 1",
			"lat": "10.769206",
			"lng": "106.700233"
		},
		{
			"title": "B’s mart cửa hàng 4",
			"address": "122D Bùi Thị Xuân, Phường Phạm Ngũ Lão, Quận 1",
			"lat": "10.76992",
			"lng": "106.688286"
		},
		{
			"title": "B’s mart cửa hàng 5",
			"address": "22 Cao Bá Nhạ, Phường Nguyễn Cư Trinh, Quận 1",
			"lat": "10.763108",
			"lng": "106.690075"
		},
		{
			"title": "B’s mart cửa hàng 6",
			"address": "84 Nguyễn Thái Học, Phường Cầu Ông Lãnh, Quận 1",
			"lat": "10.767085",
			"lng": "106.695949"
		},
		{
			"title": "B’s mart cửa hàng 7",
			"address": "165-167 Lê Thánh Tôn, Phường Bến Thành, Quận 1",
			"lat": "10.773719",
			"lng": "106.698963"
		},
		{
			"title": "B’s mart cửa hàng 8",
			"address": "76-78 Bùi Viện, Phường Phạm Ngũ Lão, Quận 1",
			"lat": "10.767283",
			"lng": "106.693379"
		},
		{
			"title": "B’s mart cửa hàng 9",
			"address": "39 Nguyễn Cư Trinh, Phường Nguyễn Cư Trinh, Quận 1",
			"lat": "10.764234",
			"lng": "106.691404"
		},
		{
			"title": "B’s mart cửa hàng 10",
			"address": "321 Phạm Ngũ Lão, Phường Phạm Ngũ Lão, Quận 1",
			"lat": "10.767436",
			"lng": "106.690719"
		},
		{
			"title": "B’s mart cửa hàng 11",
			"address": "32 Nguyễn Hữu Cầu, Phường Tân Định, Quận 1",
			"lat": "10.791148",
			"lng": "106.691058"
		},
		{
			"title": "B’s mart cửa hàng 12",
			"address": "88 Nguyễn Thái Bình, Phường Nguyễn Thái Bình, Quận 1",
			"lat": "10.768668",
			"lng": "106.698879"
		},
		{
			"title": "B’s mart cửa hàng 13",
			"address": "43 Trương Định, Phường Bến Thành, Quận 1",
			"lat": "10.772221",
			"lng": "106.695676"
		},
		{
			"title": "B’s mart cửa hàng 14",
			"address": "173 Phan Văn Khỏe, Phường 5, Quận 6",
			"lat": "10.748217",
			"lng": "106.64556"
		},
		{
			"title": "B’s mart cửa hàng 15",
			"address": "406C Cách Mạng Tháng 8, Phường 7, Quận 3",
			"lat": "10.783622",
			"lng": "106.671239"
		},
		{
			"title": "B’s mart cửa hàng 16",
			"address": "29 Trần Quốc Toản, Phường 8, Quận 3",
			"lat": "10.789065",
			"lng": "106.689287"
		},
		{
			"title": "B’s mart cửa hàng 17",
			"address": "63 Trần Quang Diệu, Phường 13, Quận 3",
			"lat": "10.785544",
			"lng": "106.678514"
		},
		{
			"title": "B’s mart cửa hàng 18",
			"address": "268 Lê Văn Sỹ, Phường 14, Quận 3",
			"lat": "10.786787",
			"lng": "106.680201"
		},
		{
			"title": "B’s mart cửa hàng 19",
			"address": "105-107 Nguyễn Thiện Thuật, Phường 2, Quận 3",
			"lat": "10.767349",
			"lng": "106.680503"
		},
		{
			"title": "B’s mart cửa hàng 20",
			"address": "112 Nguyễn Phúc Nguyên, Phường 9, Quận 3",
			"lat": "10.778951",
			"lng": "106.68096"
		},
		{
			"title": "B’s mart cửa hàng 21",
			"address": "250A Lý Chính Thắng, Phường 9, Quận 3",
			"lat": "10.779784",
			"lng": "106.682172"
		},
		{
			"title": "B’s mart cửa hàng 22",
			"address": "192A Hoàng Diệu, Phường 9, Quận 4",
			"lat": "10.762744",
			"lng": "106.7027"
		},
		{
			"title": "B’s mart cửa hàng 23",
			"address": "404 Nguyễn Tất Thành, Phường 18, Quận 4",
			"lat": "10.759802",
			"lng": "106.712757"
		},
		{
			"title": "B’s mart cửa hàng 24",
			"address": "2C Vĩnh Hội, Phường 3, Quận 4",
			"lat": "10.756108",
			"lng": "106.702561"
		},
		{
			"title": "B’s mart cửa hàng 25",
			"address": "288 Khánh Hội, Phường 5, Quận 4",
			"lat": "10.76019",
			"lng": "106.698358"
		},
		{
			"title": "B’s mart cửa hàng 26",
			"address": "292 Nguyễn Tất Thành, phường 13, quận 4",
			"lat": "10.761638",
			"lng": "106.709544"
		},
		{
			"title": "B’s mart cửa hàng 27",
			"address": "209/13D Tôn Thất Thuyết, Phường 3, Quận 4",
			"lat": "10.753885",
			"lng": "106.699372"
		},
		{
			"title": "B’s mart cửa hàng 28",
			"address": "74 Trần Bình Trọng, Phường 1, Quận 5",
			"lat": "10.754542",
			"lng": "106.682042"
		},
		{
			"title": "B’s mart cửa hàng 29",
			"address": "125 Trần Bình Trọng, Phường  2, Quận 5",
			"lat": "10.75688",
			"lng": "106.68083"
		},
		{
			"title": "B’s mart cửa hàng 30",
			"address": "25C Sư Vạn Hạnh, Phường 9, Quận 5",
			"lat": "10.760274",
			"lng": "106.67308"
		},
		{
			"title": "B’s mart cửa hàng 31",
			"address": "16 Đặng Thái Thân, Phường 11, Quận 5",
			"lat": "10.754745",
			"lng": "106.665528"
		},
		{
			"title": "B’s mart cửa hàng 32",
			"address": "45 Lâm Văn Bền, Phường Tân Thuận Tây, Quận 7",
			"lat": "10.749948",
			"lng": "106.71584"
		},
		{
			"title": "B’s mart cửa hàng 33",
			"address": "352 Lê Văn Lương, Phường Tân Hưng, Quận 7",
			"lat": "10.738676",
			"lng": "106.702409"
		},
		{
			"title": "B’s mart cửa hàng 34",
			"address": "35 Tân Mỹ, Phường Tân Phú, Quận 7",
			"lat": "10.737056",
			"lng": "106.718241"
		},
		{
			"title": "B’s mart cửa hàng 35",
			"address": "108 Đường số 15, Phường Tân Kiểng, Quận 7",
			"lat": "10.747832",
			"lng": "106.716872"
		},
		{
			"title": "B’s mart cửa hàng 36",
			"address": "73 Hoàng Văn Thái, Phường Tân Phú, Quận 7",
			"lat": "10.730614",
			"lng": "106.722713"
		},
		{
			"title": "B’s mart cửa hàng 37",
			"address": "198/37 Nguyễn Văn Linh, Phường Tân Thuận Tây, Quận 7",
			"lat": "10.751204",
			"lng": "106.723709"
		},
		{
			"title": "B’s mart cửa hàng 38",
			"address": "1094 Phạm Thế Hiển, Phường 5, Quận 8",
			"lat": "10.743017",
			"lng": "106.666856"
		},
		{
			"title": "B’s mart cửa hàng 39",
			"address": "126 Dương Bá Trạc, Phường 2, Quận 8",
			"lat": "10.748051",
			"lng": "106.688429"
		},
		{
			"title": "B’s mart cửa hàng 40",
			"address": "11N Nguyễn Thị Tần, Phường 2, Quận 8",
			"lat": "10.745779",
			"lng": "106.686557"
		},
		{
			"title": "B’s mart cửa hàng 41",
			"address": "769D Phạm Thế Hiển, Phường 4, Quận 8",
			"lat": "10.744484",
			"lng": "106.674207"
		},
		{
			"title": "B’s mart cửa hàng 42",
			"address": "44 Đường 643 Tạ Quang Bửu, Phường 4, Quận 8",
			"lat": "10.7371",
			"lng": "106.67382"
		},
		{
			"title": "B’s mart cửa hàng 43",
			"address": "8A Bùi Minh Trực, Phường 5, Quận 8",
			"lat": "10.737972",
			"lng": "106.657982"
		},
		{
			"title": "B’s mart cửa hàng 44",
			"address": "17 Huỳnh Thị Phụng, phường 4, quận 8",
			"lat": "10.742318",
			"lng": "106.672059"
		},
		{
			"title": "B’s mart cửa hàng 45",
			"address": "425 Hưng Phú, Phường 8, Quận 8",
			"lat": "10.747118",
			"lng": "106.6742"
		},
		{
			"title": "B’s mart cửa hàng 46",
			"address": "111-113 Hưng Phú, Phường 8, Quận 8",
			"lat": "10.746813",
			"lng": "106.671843"
		},
		{
			"title": "B’s mart cửa hàng 47",
			"address": "711 Ba Đình, Phường 10, Quận 8",
			"lat": "10.747724",
			"lng": "106.668004"
		},
		{
			"title": "B’s mart cửa hàng 48",
			"address": "2 Bình Đông, Phường 15, Quận 8",
			"lat": "10.734463",
			"lng": "106.636442"
		},
		{
			"title": "B’s mart cửa hàng 49",
			"address": "83 Phong Phú, Phường 12, Quận 8",
			"lat": "10.745069",
			"lng": "106.660709"
		},
		{
			"title": "B’s mart cửa hàng 50",
			"address": "304 Âu Dương Lân, Phường 3, Quận 8",
			"lat": "10.743393",
			"lng": "106.684159"
		},
		{
			"title": "B’s mart cửa hàng 51",
			"address": "190 Cao Lỗ, Phường 4, Quận 8",
			"lat": "10.738915",
			"lng": "106.678335"
		},
		{
			"title": "B’s mart cửa hàng 52",
			"address": "61 Cao Xuân Dục, Phường 12, Quận 8",
			"lat": "10.743575",
			"lng": "106.658438"
		},
		{
			"title": "B’s mart cửa hàng 53",
			"address": "82 Đồng Nai, Phường 15, Quận 10",
			"lat": "10.777377",
			"lng": "106.664279"
		},
		{
			"title": "B’s mart cửa hàng 54",
			"address": "551 Sư Vạn Hạnh, Phường 13, Quận 10",
			"lat": "10.775916",
			"lng": "106.667092"
		},
		{
			"title": "B’s mart cửa hàng 55",
			"address": "140 Nguyễn Duy Dương, Phường 3, Quận 10",
			"lat": "10.760631",
			"lng": "106.671084"
		},
		{
			"title": "B’s mart cửa hàng 56",
			"address": "440 Nguyễn Chí Thanh, Phường 6, Quận 10",
			"lat": "10.759246",
			"lng": "106.664631"
		},
		{
			"title": "B’s mart cửa hàng 57",
			"address": "131 Tô Hiến Thành, Phường 13, Quận 10",
			"lat": "10.781045",
			"lng": "106.66982"
		},
		{
			"title": "B’s mart cửa hàng 58",
			"address": "54 Lữ Gia, Phường 15, Quận 11",
			"lat": "10.771098",
			"lng": "106.654277"
		},
		{
			"title": "B’s mart cửa hàng 59",
			"address": "319 Lý Thường Kiệt, Phường 15, Quận 11",
			"lat": "10.776574",
			"lng": "106.65444"
		},
		{
			"title": "B’s mart cửa hàng 60",
			"address": "223 Tôn Thất Hiệp, Phường 12, Quận 11",
			"lat": "10.761044",
			"lng": "106.652805"
		},
		{
			"title": "B’s mart cửa hàng 61",
			"address": "343E Lạc Long Quân, Phường 5, Quận 11",
			"lat": "10.768583",
			"lng": "106.643366"
		},
		{
			"title": "B’s mart cửa hàng 62",
			"address": "9 Đường Số 2, Cư Xá Bình Thới, Phường 8, Quận 11",
			"lat": "10.762895",
			"lng": "106.649687"
		},
		{
			"title": "B’s mart cửa hàng 63",
			"address": "10 Đường Số 52, phường 15, quận 11",
			"lat": "10.773016",
			"lng": "106.654029"
		},
		{
			"title": "B’s mart cửa hàng 64",
			"address": "19 Nguyễn Văn Phú, Phường 5, Quận 11",
			"lat": "10.770271",
			"lng": "106.642876"
		},
		{
			"title": "B’s mart cửa hàng 65",
			"address": "36A/27 Đường 762 ( Hồng Bàng ), Phường 1, Quận 11",
			"lat": "10.756852",
			"lng": "106.639144"
		},
		{
			"title": "B’s mart cửa hàng 66",
			"address": "62B Hòa Bình, Phường 5, Quận 11",
			"lat": "10.768193",
			"lng": "106.639814"
		},
		{
			"title": "B’s mart cửa hàng 67",
			"address": "203 Nguyễn Thị Nhỏ, Phường 16, Quận 11",
			"lat": "10.755738",
			"lng": "106.650284"
		},
		{
			"title": "B’s mart cửa hàng 68",
			"address": "104A  Độc Lập, Phường Tân Thành, Quận Tân Phú",
			"lat": "10.792256",
			"lng": "106.633923"
		},
		{
			"title": "B’s mart cửa hàng 69",
			"address": "230A Độc Lập, phường Tân Thành, quận Tân Phú",
			"lat": "10.79263",
			"lng": "106.630561"
		},
		{
			"title": "B’s mart cửa hàng 70",
			"address": "104 Trịnh Đình Trọng, Phường Phú Trung, Quận Tân Phú",
			"lat": "10.775221",
			"lng": "106.644525"
		},
		{
			"title": "B’s mart cửa hàng 71",
			"address": "319 Trương Vĩnh Ký, Phường Tân Thành, Quận Tân Phú",
			"lat": "10.794316",
			"lng": "106.630443"
		},
		{
			"title": "B’s mart cửa hàng 72",
			"address": "164A Tân Kỳ Tân Quý, Phường Sơn Kỳ, Quận Tân Phú",
			"lat": "10.80192",
			"lng": "106.625885"
		},
		{
			"title": "B’s mart cửa hàng 73",
			"address": "47 Đường S11, Phường Tây Thạnh, Quận Tân phú",
			"lat": "10.814017",
			"lng": "106.620823"
		},
		{
			"title": "B’s mart cửa hàng 74",
			"address": "9A Thoại Ngọc Hầu, Phường Hòa Thạnh, Quận Tân Phú",
			"lat": "10.784104",
			"lng": "106.639458"
		},
		{
			"title": "B’s mart cửa hàng 75",
			"address": "24 Hoa Bằng, phường Tân Sơn Nhì, quận Tân Phú",
			"lat": "10.799208",
			"lng": "106.627874"
		},
		{
			"title": "B’s mart cửa hàng 76",
			"address": "147 Lý Thánh Tông, Phường Tân Thới Hoà, Quận Tân Phú",
			"lat": "10.766993",
			"lng": "106.630228"
		},
		{
			"title": "B’s mart cửa hàng 77",
			"address": "259 Tân Quý, Phường Tân Quý, Quận Tân Phú",
			"lat": "10.796025",
			"lng": "106.619934"
		},
		{
			"title": "B’s mart cửa hàng 78",
			"address": "17 Khuông Việt, Phường Phú Trung, Quận Tân Phú",
			"lat": "10.77982",
			"lng": "106.642335"
		},
		{
			"title": "B’s mart cửa hàng 79",
			"address": "53 Lê Thúc Hoạch, Phường Phú Thọ Hòa, Quận Tân Phú",
			"lat": "10.787819",
			"lng": "106.620652"
		},
		{
			"title": "B’s mart cửa hàng 80",
			"address": "130 Vườn Lài, Phường Tân Thành, Quận Tân Phú",
			"lat": "10.788023",
			"lng": "106.631048"
		},
		{
			"title": "B’s mart cửa hàng 81",
			"address": "347 Nguyễn Trọng Tuyển, Phường 1, Quận Tân Bình",
			"lat": "10.798128",
			"lng": "106.667812"
		},
		{
			"title": "B’s mart cửa hàng 82",
			"address": "334 Cộng Hòa, Phường 13, Quận Tân Bình",
			"lat": "10.802225",
			"lng": "106.644596"
		},
		{
			"title": "B’s mart cửa hàng 83",
			"address": "63 Hoàng Hoa Thám, Phường 13, Quận Tân Bình",
			"lat": "10.800414",
			"lng": "106.647147"
		},
		{
			"title": "B’s mart cửa hàng 84",
			"address": "210 Nguyễn Thái Bình, Phường 13, Quận Tân Bình",
			"lat": "10.796804",
			"lng": "106.652996"
		},
		{
			"title": "B’s mart cửa hàng 85",
			"address": "57 Thăng Long, Phường 4, Quận Tân Bình",
			"lat": "10.803291",
			"lng": "106.660608"
		},
		{
			"title": "B’s mart cửa hàng 86",
			"address": "12 - 12A Đất Thánh, Phường 6, Quận Tân Bình",
			"lat": "10.782972",
			"lng": "106.657657"
		},
		{
			"title": "B’s mart cửa hàng 87",
			"address": "103 Đồng Đen, Phường 12, Quận Tân Bình",
			"lat": "10.792812",
			"lng": "106.644463"
		},
		{
			"title": "B’s mart cửa hàng 88",
			"address": "92 Bành Văn Trân, Phường 17, Quận Tân Bình",
			"lat": "10.788134",
			"lng": "106.658754"
		},
		{
			"title": "B’s mart cửa hàng 89",
			"address": "16 Ấp Bắc, phường 13, quận Tân Bình",
			"lat": "10.801497",
			"lng": "106.642189"
		},
		{
			"title": "B’s mart cửa hàng 90",
			"address": "739 Cách Mạng Tháng 8, Phường 6, Quận Tân Bình",
			"lat": "10.792523",
			"lng": "106.654122"
		},
		{
			"title": "B’s mart cửa hàng 91",
			"address": "123A Hoàng Hoa Thám, Phường 13, Quận Tân Bình",
			"lat": "10.802729",
			"lng": "106.647372"
		},
		{
			"title": "B’s mart cửa hàng 92",
			"address": "9 Lê Bình, Phường 4, Quận Tân Bình",
			"lat": "10.793641",
			"lng": "106.656909"
		},
		{
			"title": "B’s mart cửa hàng 93",
			"address": "226D Lê Văn Sỹ, Phường 1, Quận Tân Bình",
			"lat": "10.794968",
			"lng": "106.667687"
		},
		{
			"title": "B’s mart cửa hàng 94",
			"address": "109F Phạm Văn Hai, Phường 13, Quận Tân Bình",
			"lat": "10.792408",
			"lng": "106.662476"
		},
		{
			"title": "B’s mart cửa hàng 95",
			"address": "260 Bắc Hải, Phường 6, Quận Tân Bình",
			"lat": "10.783758",
			"lng": "106.661436"
		},
		{
			"title": "B’s mart cửa hàng 96",
			"address": "76 Lê Bình, phường 4, quận Phú Nhuận",
			"lat": "10.793628",
			"lng": "106.657"
		},
		{
			"title": "B’s mart cửa hàng 97",
			"address": "72 Thân Nhân Trung, Phường 13, Quận Tân Bình",
			"lat": "10.804576",
			"lng": "106.642951"
		},
		{
			"title": "B’s mart cửa hàng 98",
			"address": "59 Phan Sào Nam, Phường 11, Quận Tân Bình",
			"lat": "10.788586",
			"lng": "106.645476"
		},
		{
			"title": "B’s mart cửa hàng 99",
			"address": "58 Phạm Phú Thứ, Phường 11, Quận Tân Bình",
			"lat": "10.78934",
			"lng": "106.647757"
		},
		{
			"title": "B’s mart cửa hàng 100",
			"address": "5 Nguyễn Sỹ Sách, Phường 15, Quận Tân Bình",
			"lat": "10.820604",
			"lng": "106.636881"
		},
		{
			"title": "B’s mart cửa hàng 101",
			"address": "294 Hồng Lạc, Phường 11, Quận Tân Bình",
			"lat": "10.787554",
			"lng": "106.644714"
		},
		{
			"title": "B’s mart cửa hàng 102",
			"address": "169 Đường D1, Phường 25, Quận Bình Thạnh",
			"lat": "10.802098",
			"lng": "106.719237"
		},
		{
			"title": "B’s mart cửa hàng 103",
			"address": "183E Nguyễn Văn Đậu, Phường 11, Quận Bình Thạnh",
			"lat": "10.810798",
			"lng": "106.690324"
		},
		{
			"title": "B’s mart cửa hàng 104",
			"address": "45-47 Vạn Kiếp, Phường 3, Quận Bình Thạnh",
			"lat": "10.800786",
			"lng": "106.693548"
		},
		{
			"title": "B’s mart cửa hàng 105",
			"address": "30 đường D5, phường 25, quận Bình Thạnh",
			"lat": "10.806716",
			"lng": "106.712328"
		},
		{
			"title": "B’s mart cửa hàng 106",
			"address": "156 Quốc lộ 13, Phường 26, Quận Bình Thạnh",
			"lat": "10.809331",
			"lng": "106.712117"
		},
		{
			"title": "B’s mart cửa hàng 107",
			"address": "31/40 Ung Văn Khiêm, Phường 25, Quận Bình Thạnh",
			"lat": "10.804562",
			"lng": "106.720745"
		},
		{
			"title": "B’s mart cửa hàng 108",
			"address": "43 Nguyễn Thượng Hiền, phường 9, quận Bình Thạnh",
			"lat": "10.814484",
			"lng": "106.687071"
		},
		{
			"title": "B’s mart cửa hàng 109",
			"address": "28 Đường 8, Phường 26, Quận Bình Thạnh",
			"lat": "10.812606",
			"lng": "106.706775"
		},
		{
			"title": "B’s mart cửa hàng 110",
			"address": "245D Chu Văn An, Phường 12, Quận Bình Thạnh",
			"lat": "10.811575",
			"lng": "106.698436"
		},
		{
			"title": "B’s mart cửa hàng 111",
			"address": "11 Phú Mỹ, Phường 22, Quận Bình Thạnh",
			"lat": "10.788037",
			"lng": "106.714776"
		},
		{
			"title": "B’s mart cửa hàng 112",
			"address": "31 Bùi Đình Túy, Phường 26, Quận Bình Thạnh",
			"lat": "10.80818",
			"lng": "106.708421"
		},
		{
			"title": "B’s mart cửa hàng 113",
			"address": "22 Phan Xích Long, Phường 3, Quận Phú Nhuận",
			"lat": "10.802855",
			"lng": "106.682152"
		},
		{
			"title": "B’s mart cửa hàng 114",
			"address": "141A02 Đặng Văn Ngữ, Phường 14, Quận Phú Nhuận",
			"lat": "10.792631",
			"lng": "106.668206"
		},
		{
			"title": "B’s mart cửa hàng 115",
			"address": "36 Nguyễn Văn Đậu, Phường 5, Quận Phú Nhuận",
			"lat": "10.805586",
			"lng": "106.687692"
		},
		{
			"title": "B’s mart cửa hàng 116",
			"address": "57-59 Nguyễn Trọng Tuyển, Phường 15, Quận Phú Nhuận",
			"lat": "10.797167",
			"lng": "106.679519"
		},
		{
			"title": "B’s mart cửa hàng 117",
			"address": "29 Đặng Văn Ngữ, Phường 10, Quận Phú Nhuận",
			"lat": "10.796322",
			"lng": "106.668928"
		},
		{
			"title": "B’s mart cửa hàng 118",
			"address": "93 Thích Quảng Đức, Phường 4, Quận Phú Nhuận",
			"lat": "10.805314",
			"lng": "106.682105"
		},
		{
			"title": "B’s mart cửa hàng 119",
			"address": "43EF Hồ Văn Huê, Phường 9, Quận Phú Nhuận",
			"lat": "10.803595",
			"lng": "106.677125"
		},
		{
			"title": "B’s mart cửa hàng 120",
			"address": "553/73 Nguyễn Kiệm, phường 9, Quận Phú Nhuận",
			"lat": "10.804791",
			"lng": "106.678619"
		},
		{
			"title": "B’s mart cửa hàng 121",
			"address": "10 Lê Lợi, Phường 4, Quận Gò Vấp",
			"lat": "10.820444",
			"lng": "106.686211"
		},
		{
			"title": "B’s mart cửa hàng 122",
			"address": "613 Lê Đức Thọ, Phường 16, Quận Gò Vấp",
			"lat": "10.849877",
			"lng": "106.662735"
		},
		{
			"title": "B’s mart cửa hàng 123",
			"address": "376 Lê Đức Thọ, Phường 6, Quận Gò Vấp",
			"lat": "10.841715",
			"lng": "106.677334"
		},
		{
			"title": "B’s mart cửa hàng 124",
			"address": "206 Lê Đức Thọ, Phường 6, Quận Gò Vấp",
			"lat": "10.840935",
			"lng": "106.678255"
		},
		{
			"title": "B’s mart cửa hàng 125",
			"address": "179A Đường số 8, Phường 11, Quận Gò Vấp",
			"lat": "10.843228",
			"lng": "106.66427"
		},
		{
			"title": "B’s mart cửa hàng 126",
			"address": "240 Phạm Văn Chiêu, Phường 9, Quận Gò Vấp",
			"lat": "10.846738",
			"lng": "106.645107"
		},
		{
			"title": "B’s mart cửa hàng 127",
			"address": "338-340 Dương Quảng Hàm, Phường 5, Quận Gò Vấp",
			"lat": "10.832109",
			"lng": "106.686328"
		},
		{
			"title": "B’s mart cửa hàng 128",
			"address": "99A Huỳnh Khương An, Phường 5, Quận Gò Vấp",
			"lat": "10.822658",
			"lng": "106.689355"
		},
		{
			"title": "B’s mart cửa hàng 129",
			"address": "921 Phạm Văn Bạch, Phường 12, Quận Gò Vấp",
			"lat": "10.825271",
			"lng": "106.640658"
		},
		{
			"title": "B’s mart cửa hàng 130",
			"address": "383/7 Quang Trung, Phường 10, Quận Gò Vấp",
			"lat": "10.834688",
			"lng": "106.664082"
		},
		{
			"title": "B’s mart cửa hàng 131",
			"address": "49J Quốc Hương, Phường Thảo Điền, Quận 2",
			"lat": "10.808958",
			"lng": "106.731265"
		},
		{
			"title": "B’s mart cửa hàng 132",
			"address": "535 Nguyễn Thị Định, Phường Cát Lái, Quận 2",
			"lat": "10.775877",
			"lng": "106.766829"
		},
		{
			"title": "B’s mart cửa hàng 133",
			"address": "522 Nguyễn Duy Trinh, Ấp Đông, Phường Bình Trưng Đông, Quận 2",
			"lat": "10.78204",
			"lng": "106.779493"
		},
		{
			"title": "B’s mart cửa hàng 134",
			"address": "66 Đường 15 Phường An Phú, Quận 2",
			"lat": "10.798391",
			"lng": "106.742672"
		},
		{
			"title": "B’s mart cửa hàng 135",
			"address": "622 Nguyễn Duy Trinh, Phường Bình Trưng Đông, Quận 2",
			"lat": "10.789298",
			"lng": "106.778981"
		},
		{
			"title": "B’s mart cửa hàng 136",
			"address": "114 Nguyễn Duy Trinh, Phường Bình Trưng Tây, Quận 2",
			"lat": "10.787942",
			"lng": "106.75881"
		},
		{
			"title": "B’s mart cửa hàng 137",
			"address": "201 Minh Phụng, Phường 9, Quận 6",
			"lat": "10.751949",
			"lng": "106.642752"
		},
		{
			"title": "B’s mart cửa hàng 138",
			"address": "203C Nguyễn Văn Luông, Phường 11, Quận 6",
			"lat": "10.743134",
			"lng": "106.634487"
		},
		{
			"title": "B’s mart cửa hàng 139",
			"address": "171 Gia Phú, Phường 1, Quận 6",
			"lat": "10.743601",
			"lng": "106.646808"
		},
		{
			"title": "B’s mart cửa hàng 140",
			"address": "210A Phạm Văn Chí, Phường 4, Quận 6",
			"lat": "10.74497",
			"lng": "106.64669"
		},
		{
			"title": "B’s mart cửa hàng 141",
			"address": "118A Văn Thân, Phường 8, Quận 6",
			"lat": "10.74167",
			"lng": "106.639082"
		},
		{
			"title": "B’s mart cửa hàng 142",
			"address": "163A Tân Hòa Đông, Phường 14, Quận 6",
			"lat": "10.756295",
			"lng": "106.632371"
		},
		{
			"title": "B’s mart cửa hàng 143",
			"address": "338 Đỗ Xuân Hợp, Phường Phước Long A, Quận 9",
			"lat": "10.82236",
			"lng": "106.771298"
		},
		{
			"title": "B’s mart cửa hàng 144",
			"address": "A2/2A Lê Văn Việt, khu phố 2, Phường Tăng Nhơn Phú A, Quận 9",
			"lat": "10.845029",
			"lng": "106.791749"
		},
		{
			"title": "B’s mart cửa hàng 145",
			"address": "436 Lê Văn Việt, Phường Tăng Nhơn Phú A, Quận 9",
			"lat": "10.846866",
			"lng": "106.800043"
		},
		{
			"title": "B’s mart cửa hàng 146",
			"address": "29 Đường 18, Phường Phước Bình, Quận 9",
			"lat": "10.81507",
			"lng": "106.771289"
		},
		{
			"title": "B’s mart cửa hàng 147",
			"address": "75 Man Thiện, Phường Hiệp Phú, Quận 9",
			"lat": "10.845796",
			"lng": "106.786758"
		},
		{
			"title": "B’s mart cửa hàng 148",
			"address": "44 Tô Ký, Khu Phố 3, Phường Tân Chánh Hiệp, Quận 12",
			"lat": "10.853335",
			"lng": "106.625574"
		},
		{
			"title": "B’s mart cửa hàng 149",
			"address": "175 KP5, Phường Đông Hưng Thuận, Quận 12",
			"lat": "10.835608",
			"lng": "106.628413"
		},
		{
			"title": "B’s mart cửa hàng 150",
			"address": "63 Hoàng Diệu 2, Phường Linh Trung, Quận Thủ Đức",
			"lat": "10.858173",
			"lng": "106.76323"
		},
		{
			"title": "B’s mart cửa hàng 151",
			"address": "43 Chương Dương, Linh Chiểu, Quận Thủ Đức",
			"lat": "10.852938",
			"lng": "106.75942"
		},
		{
			"title": "B’s mart cửa hàng 152",
			"address": "48 Đường số 10 Bình Hưng Quận Bình Chánh",
			"lat": "10.752534",
			"lng": "106.628045"
		},
		{
			"title": "B’s mart cửa hàng 153",
			"address": "221 Đường số 5, phường Bình Hưng Hòa, quận Bình Tân",
			"lat": "10.806331",
			"lng": "106.602885"
		}
	]
}
